[
    {
        "version": 0.6,
        "generator": "Overpass API 0.7.62.1 084b4234",
        "osm3s": {
            "timestamp_osm_base": "2024-04-13T22:26:30Z",
            "copyright": "The data included in this document is from www.openstreetmap.org. The data is made available under ODbL."
        },
        "elements": [
            {
                "type": "node",
                "id": 4177712540,
                "lat": 31.9534119,
                "lon": 34.887668,
                "tags": {
                    "amenity": "police",
                    "name": "מוקד עירוני",
                    "name:he": "מוקד עירוני"
                }
            },
            {
                "type": "node",
                "id": 4185807407,
                "lat": 31.9499556,
                "lon": 34.8899354,
                "tags": {
                    "amenity": "clinic",
                    "healthcare": "clinic",
                    "name": "פיזיוטרפיה כללית",
                    "name:he": "פיזיוטרפיה כללית"
                }
            },
            {
                "type": "node",
                "id": 4188782888,
                "lat": 31.948884,
                "lon": 34.8907502,
                "tags": {
                    "amenity": "pharmacy",
                    "healthcare": "pharmacy"
                }
            },
            {
                "type": "node",
                "id": 5171821210,
                "lat": 31.9476175,
                "lon": 34.8915335,
                "tags": {
                    "addr:city": "לוד",
                    "amenity": "clinic",
                    "healthcare": "clinic",
                    "name": "קופת חולים כללית",
                    "name:en": "Kupat Holim Clalit",
                    "name:en1": "Clalit clinic",
                    "name:he": "קופת חולים כללית"
                }
            },
            {
                "type": "node",
                "id": 5708471647,
                "lat": 31.950745,
                "lon": 34.8886,
                "tags": {
                    "amenity": "waste_basket"
                }
            },
            {
                "type": "node",
                "id": 6858468422,
                "lat": 31.9534881,
                "lon": 34.8896999,
                "tags": {
                    "amenity": "parking_entrance"
                }
            },
            {
                "type": "node",
                "id": 7379257659,
                "lat": 31.9483449,
                "lon": 34.8878903,
                "tags": {
                    "amenity": "kindergarten",
                    "name": "רימון",
                    "name:en": "Rimon",
                    "name:he": "רימון"
                }
            },
            {
                "type": "node",
                "id": 7379257660,
                "lat": 31.9484351,
                "lon": 34.8877597,
                "tags": {
                    "amenity": "kindergarten",
                    "name": "עופרה",
                    "name:en": "Ofrah",
                    "name:he": "עופרה"
                }
            },
            {
                "type": "node",
                "id": 9161048860,
                "lat": 31.9481684,
                "lon": 34.8912931,
                "tags": {
                    "addr:city": "לוד",
                    "addr:housename": "2",
                    "addr:street": "שדרות דוד המלך",
                    "amenity": "charging_station",
                    "authentication:app": "yes",
                    "bicycle": "no",
                    "bus": "no",
                    "capacity": "2",
                    "charge": "1.69 ILS/kWh",
                    "fee": "yes",
                    "hgv": "no",
                    "motorcar": "yes",
                    "network": "EV-Edge",
                    "opening_hours": "24/7",
                    "operator": "מילגם",
                    "parking:fee": "yes",
                    "scooter": "no",
                    "socket:type2": "2",
                    "socket:type2:output": "22 kW",
                    "website": "https://evedge.co.il/"
                }
            },
            {
                "type": "way",
                "id": 219001054,
                "nodes": [
                    2282049958,
                    2282049956,
                    2282049961,
                    2282049952,
                    2282049954,
                    2282049967,
                    2282049963,
                    2282049957,
                    2282049964,
                    2282049966,
                    2282049960,
                    2282049955,
                    2282049958
                ],
                "tags": {
                    "amenity": "school"
                }
            },
            {
                "type": "way",
                "id": 356663988,
                "nodes": [
                    3620781021,
                    3620781025,
                    3620781022,
                    3620781023,
                    3620781024,
                    3620781021
                ],
                "tags": {
                    "amenity": "parking"
                }
            },
            {
                "type": "way",
                "id": 415523183,
                "nodes": [
                    4165782290,
                    4506579531,
                    4165782291,
                    4165782292,
                    4165782293,
                    4165782290
                ],
                "tags": {
                    "addr:city": "Lod",
                    "addr:street": "שדרות דוד המלך",
                    "amenity": "library",
                    "building": "yes",
                    "name": "הספרייה העירונית",
                    "name:he": "הספרייה העירונית"
                }
            },
            {
                "type": "way",
                "id": 415523185,
                "nodes": [
                    4165782302,
                    4165782303,
                    4165782304,
                    4165782305,
                    4165782302
                ],
                "tags": {
                    "addr:city": "לוד",
                    "addr:street": "כהן אלי",
                    "amenity": "clinic",
                    "building": "yes",
                    "healthcare": "clinic",
                    "name": "קופת חולים כללית - חיסכון לוד",
                    "name:en": "Clallit clinic",
                    "name:he": "קופת חולים כללית - חיסכון לוד"
                }
            },
            {
                "type": "way",
                "id": 416151941,
                "nodes": [
                    4169822228,
                    4169822229,
                    4169822230,
                    4169822231,
                    4169822228
                ],
                "tags": {
                    "addr:city": "Lod",
                    "addr:street": "כהן אלי",
                    "amenity": "place_of_worship",
                    "building": "yes",
                    "name": "בית כנסת של יהודי גיאורגיה",
                    "name:he": "בית כנסת של יהודי גיאורגיה",
                    "religion": "jewish"
                }
            },
            {
                "type": "way",
                "id": 416151942,
                "nodes": [
                    4169822232,
                    4169822233,
                    4169822234,
                    4169822235,
                    4169822232
                ],
                "tags": {
                    "addr:city": "Lod",
                    "addr:street": "כהן אלי",
                    "amenity": "place_of_worship",
                    "building": "yes",
                    "religion": "jewish"
                }
            },
            {
                "type": "way",
                "id": 416151943,
                "nodes": [
                    4169822236,
                    4169822237,
                    4169822238,
                    4169822240,
                    4169822236
                ],
                "tags": {
                    "addr:city": "Lod",
                    "addr:street": "כהן אלי",
                    "amenity": "place_of_worship",
                    "building": "yes",
                    "religion": "jewish"
                }
            },
            {
                "type": "way",
                "id": 416151944,
                "nodes": [
                    4169822241,
                    4169822242,
                    4169822243,
                    4169822244,
                    4169822241
                ],
                "tags": {
                    "addr:city": "Lod",
                    "addr:street": "כהן אלי",
                    "amenity": "place_of_worship",
                    "building": "yes",
                    "name": "בית כנסת של עולי הודו",
                    "name:he": "בית כנסת של עולי הודו",
                    "religion": "jewish"
                }
            },
            {
                "type": "way",
                "id": 416151947,
                "nodes": [
                    4169822245,
                    4169822246,
                    4169822247,
                    4169822248,
                    4169822245
                ],
                "tags": {
                    "addr:city": "Lod",
                    "addr:street": "זלמן ארן",
                    "amenity": "kindergarten",
                    "building": "kindergarten",
                    "name": "גן ילדים",
                    "name:en": "Kindergarten",
                    "name:he": "גן ילדים"
                }
            },
            {
                "type": "way",
                "id": 416151948,
                "nodes": [
                    4169822249,
                    4311711077,
                    4311711078,
                    4169822250,
                    4169822251,
                    4169822252,
                    4169822249
                ],
                "tags": {
                    "addr:city": "Lod",
                    "addr:street": "זלמן ארן",
                    "amenity": "kindergarten",
                    "building": "kindergarten",
                    "name": "גן ילדים",
                    "name:en": "Kindergarten",
                    "name:he": "גן ילדים"
                }
            },
            {
                "type": "way",
                "id": 416151950,
                "nodes": [
                    4169822253,
                    4311711080,
                    4311711081,
                    4169822254,
                    4169822255,
                    4311711079,
                    4169822256,
                    4169822253
                ],
                "tags": {
                    "addr:city": "Lod",
                    "addr:street": "זלמן ארן",
                    "amenity": "kindergarten",
                    "building": "kindergarten",
                    "name": "גן ילדים",
                    "name:en": "Kindergarten",
                    "name:he": "גן ילדים"
                }
            },
            {
                "type": "way",
                "id": 416151957,
                "nodes": [
                    4169822273,
                    4169822274,
                    4169822275,
                    4169822276,
                    4169822273
                ],
                "tags": {
                    "amenity": "kindergarten",
                    "building": "house",
                    "name": "גן ילדים",
                    "name:en": "Kindergarten",
                    "name:he": "גן ילדים"
                }
            },
            {
                "type": "way",
                "id": 416158186,
                "nodes": [
                    4169880217,
                    4169880218,
                    4169880219,
                    4169880220,
                    4169880217
                ],
                "tags": {
                    "addr:city": "Lod",
                    "amenity": "townhall",
                    "building": "yes",
                    "name": "בניין העירייה",
                    "name:en": "City Hall",
                    "name:he": "בניין העירייה"
                }
            },
            {
                "type": "way",
                "id": 416158187,
                "nodes": [
                    4169880221,
                    4169880222,
                    4169880223,
                    4169880224,
                    4169880225,
                    4169880221
                ],
                "tags": {
                    "amenity": "parking"
                }
            },
            {
                "type": "way",
                "id": 416158188,
                "nodes": [
                    4169880226,
                    4169880227,
                    4169880228,
                    4169880229,
                    4169880226
                ],
                "tags": {
                    "amenity": "parking"
                }
            },
            {
                "type": "way",
                "id": 416158191,
                "nodes": [
                    4169880240,
                    4169880241,
                    4169880242,
                    4169880243,
                    4169880240
                ],
                "tags": {
                    "addr:city": "Lod",
                    "addr:street": "שדרות דוד המלך",
                    "amenity": "pharmacy",
                    "brand": "סופר-פארם",
                    "brand:he": "סופר-פארם",
                    "brand:wikidata": "Q13220217",
                    "brand:wikipedia": "en:Super-Pharm",
                    "building": "yes",
                    "healthcare": "pharmacy",
                    "name": "סופר-פארם",
                    "name:en": "Super-Pharm",
                    "name:he": "סופר-פארם",
                    "name:ru": "Супер-Фарм",
                    "website": "http://www.super-pharm.co.il"
                }
            },
            {
                "type": "way",
                "id": 416158193,
                "nodes": [
                    4169880248,
                    4169880249,
                    4169880250,
                    4169880251,
                    4169880252,
                    4169880253,
                    4169880248
                ],
                "tags": {
                    "amenity": "parking"
                }
            },
            {
                "type": "way",
                "id": 416159996,
                "nodes": [
                    4169900829,
                    4169900830,
                    4169900831,
                    4169900832,
                    4169900829
                ],
                "tags": {
                    "amenity": "parking"
                }
            },
            {
                "type": "way",
                "id": 416159999,
                "nodes": [
                    4169900841,
                    4169900842,
                    4169900843,
                    4169900844,
                    4169900845,
                    4169900846,
                    4169900847,
                    4169900841
                ],
                "tags": {
                    "amenity": "parking"
                }
            },
            {
                "type": "way",
                "id": 416160000,
                "nodes": [
                    4169900848,
                    4169900849,
                    4169900850,
                    4169900851,
                    4169900848
                ],
                "tags": {
                    "amenity": "parking"
                }
            },
            {
                "type": "way",
                "id": 416169310,
                "nodes": [
                    4170003815,
                    4170003816,
                    4170003817,
                    4170003818,
                    4170003815
                ],
                "tags": {
                    "amenity": "bank",
                    "brand": "בנק לאומי",
                    "brand:en": "Bank Leumi",
                    "brand:he": "בנק לאומי",
                    "brand:wikidata": "Q806641",
                    "brand:wikipedia": "en:Bank Leumi",
                    "building": "yes",
                    "name": "בנק לאומי",
                    "name:ar": "بنك ليئومي",
                    "name:en": "Bank Leumi",
                    "name:he": "בנק לאומי",
                    "name:ru": "Банк Леуми",
                    "website": "https://www.leumi.co.il"
                }
            },
            {
                "type": "way",
                "id": 416169311,
                "nodes": [
                    4170003819,
                    4170003820,
                    4170003821,
                    4170003824,
                    4170003819
                ],
                "tags": {
                    "amenity": "events_venue",
                    "building": "yes",
                    "name": "אולם אירועים",
                    "name:he": "אולם אירועים"
                }
            },
            {
                "type": "way",
                "id": 416169679,
                "nodes": [
                    4170016893,
                    4170016894,
                    4170016895,
                    4170016896,
                    4170016893
                ],
                "tags": {
                    "amenity": "parking"
                }
            },
            {
                "type": "way",
                "id": 416655221,
                "nodes": [
                    4173932858,
                    4317619458,
                    4173932859,
                    4173932860,
                    4173932861,
                    4173932862,
                    4173932858
                ],
                "tags": {
                    "addr:city": "Lod",
                    "addr:street": "כצנלסון",
                    "amenity": "police",
                    "building": "yes",
                    "name": "משטרת לוד",
                    "name:he": "משטרת לוד"
                }
            },
            {
                "type": "way",
                "id": 416655224,
                "nodes": [
                    4173932873,
                    4173932874,
                    4173932875,
                    4173932877,
                    4173932873
                ],
                "tags": {
                    "amenity": "place_of_worship",
                    "building": "yes",
                    "religion": "jewish"
                }
            },
            {
                "type": "way",
                "id": 416655225,
                "nodes": [
                    4173932878,
                    4173932879,
                    4173932880,
                    4173932881,
                    4173932882,
                    4173932883,
                    4173932884,
                    4173932885,
                    4173932878
                ],
                "tags": {
                    "amenity": "parking"
                }
            },
            {
                "type": "way",
                "id": 417164595,
                "nodes": [
                    4177716367,
                    4177716371,
                    4311740314,
                    4177716372,
                    4177716367
                ],
                "tags": {
                    "amenity": "place_of_worship",
                    "building": "yes",
                    "religion": "jewish"
                }
            },
            {
                "type": "way",
                "id": 417176198,
                "nodes": [
                    4177796889,
                    4177796890,
                    4177796891,
                    4177796892,
                    4177796893,
                    4177796894,
                    4177796895,
                    4177796896,
                    4177796897,
                    4177796898,
                    4177796899,
                    4177796900,
                    4177796889
                ],
                "tags": {
                    "amenity": "parking"
                }
            },
            {
                "type": "way",
                "id": 417176201,
                "nodes": [
                    4177796901,
                    4177796902,
                    4177796903,
                    4177796904,
                    4177796905,
                    4177796906,
                    4177796901
                ],
                "tags": {
                    "amenity": "parking"
                }
            },
            {
                "type": "way",
                "id": 417176203,
                "nodes": [
                    4177796913,
                    4177796914,
                    4177796915,
                    4177796916,
                    4177796913
                ],
                "tags": {
                    "amenity": "parking"
                }
            },
            {
                "type": "way",
                "id": 418126678,
                "nodes": [
                    4185781638,
                    4185781639,
                    4185781640,
                    4185781641,
                    4185781638
                ],
                "tags": {
                    "addr:city": "לוד",
                    "addr:street": "כהן אלי",
                    "amenity": "place_of_worship",
                    "building": "yes",
                    "religion": "jewish"
                }
            },
            {
                "type": "way",
                "id": 418126682,
                "nodes": [
                    4185781658,
                    4185781659,
                    4185781660,
                    4185781661,
                    4185781664,
                    4185781665,
                    4185781666,
                    4185781667,
                    4185781658
                ],
                "tags": {
                    "amenity": "parking"
                }
            },
            {
                "type": "way",
                "id": 431954319,
                "nodes": [
                    4311711065,
                    4311711073,
                    4311711064,
                    4311711071,
                    4311711068,
                    4165782187,
                    4165782188,
                    4311711059,
                    4165782289,
                    4311711051,
                    4311711048,
                    4311711053,
                    4311711058,
                    4165782186,
                    4311711063,
                    4311711056,
                    4311711062,
                    4311711057,
                    4311711052,
                    4311711046,
                    4311711049,
                    4311711047,
                    4311711054,
                    4311711060,
                    4311711061,
                    4311711070,
                    4311711066,
                    4311711072,
                    4311711065
                ],
                "tags": {
                    "addr:city": "Lod",
                    "addr:housenumber": "4",
                    "addr:street": "יוברט המפרי",
                    "amenity": "social_facility",
                    "building": "yes",
                    "name": "דיור מוגן לקשישים",
                    "name:he": "דיור מוגן לקשישים",
                    "social_facility": "group_home",
                    "social_facility:for": "senior"
                }
            },
            {
                "type": "way",
                "id": 732162303,
                "nodes": [
                    6855750173,
                    6855750174,
                    6855750175,
                    6855750176,
                    6855750177,
                    6855750178,
                    6855750173
                ],
                "tags": {
                    "amenity": "school",
                    "name": "המעפילים",
                    "name:en": "HaMaapilim",
                    "name:he": "המעפילים"
                }
            },
            {
                "type": "way",
                "id": 732409869,
                "nodes": [
                    6858468412,
                    6858468413,
                    6858468414,
                    6858468415,
                    6858468412
                ],
                "tags": {
                    "amenity": "parking"
                }
            },
            {
                "type": "way",
                "id": 732409871,
                "nodes": [
                    6858468423,
                    6858468424,
                    6858468425,
                    6858468426,
                    6858468427,
                    6858468428,
                    6858468429,
                    6858468423
                ],
                "tags": {
                    "amenity": "parking"
                }
            },
            {
                "type": "node",
                "id": 4165782186,
                "lat": 31.9500528,
                "lon": 34.8911623
            },
            {
                "type": "node",
                "id": 4165782187,
                "lat": 31.950164,
                "lon": 34.8912742
            },
            {
                "type": "node",
                "id": 4165782289,
                "lat": 31.949948,
                "lon": 34.891307
            },
            {
                "type": "node",
                "id": 4165782290,
                "lat": 31.9515708,
                "lon": 34.886381
            },
            {
                "type": "node",
                "id": 4165782291,
                "lat": 31.9514009,
                "lon": 34.8865791
            },
            {
                "type": "node",
                "id": 4165782292,
                "lat": 31.9516357,
                "lon": 34.8868589
            },
            {
                "type": "node",
                "id": 4165782293,
                "lat": 31.9518056,
                "lon": 34.8866608
            },
            {
                "type": "node",
                "id": 4165782302,
                "lat": 31.9498621,
                "lon": 34.8906423
            },
            {
                "type": "node",
                "id": 4165782303,
                "lat": 31.9496093,
                "lon": 34.8904039
            },
            {
                "type": "node",
                "id": 4165782304,
                "lat": 31.9497074,
                "lon": 34.8902594
            },
            {
                "type": "node",
                "id": 4165782305,
                "lat": 31.9499602,
                "lon": 34.8904978
            },
            {
                "type": "node",
                "id": 4169822229,
                "lat": 31.9519412,
                "lon": 34.8865288
            },
            {
                "type": "node",
                "id": 4169822230,
                "lat": 31.9517335,
                "lon": 34.886284
            },
            {
                "type": "node",
                "id": 4169822231,
                "lat": 31.9519376,
                "lon": 34.8860433
            },
            {
                "type": "node",
                "id": 4169822247,
                "lat": 31.9520345,
                "lon": 34.8870389
            },
            {
                "type": "node",
                "id": 4169822274,
                "lat": 31.9518176,
                "lon": 34.8913389
            },
            {
                "type": "node",
                "id": 4169822275,
                "lat": 31.9520444,
                "lon": 34.891331
            },
            {
                "type": "node",
                "id": 4169880217,
                "lat": 31.9490285,
                "lon": 34.8907822
            },
            {
                "type": "node",
                "id": 4169880218,
                "lat": 31.9484207,
                "lon": 34.8901959
            },
            {
                "type": "node",
                "id": 4169880219,
                "lat": 31.948342,
                "lon": 34.8903092
            },
            {
                "type": "node",
                "id": 4169880220,
                "lat": 31.9489499,
                "lon": 34.8908954
            },
            {
                "type": "node",
                "id": 4169880221,
                "lat": 31.9484389,
                "lon": 34.8912145
            },
            {
                "type": "node",
                "id": 4169880222,
                "lat": 31.9481789,
                "lon": 34.8909348
            },
            {
                "type": "node",
                "id": 4169880226,
                "lat": 31.9477608,
                "lon": 34.8911346
            },
            {
                "type": "node",
                "id": 4169880227,
                "lat": 31.9476421,
                "lon": 34.8910413
            },
            {
                "type": "node",
                "id": 4169880228,
                "lat": 31.9479981,
                "lon": 34.8905885
            },
            {
                "type": "node",
                "id": 4169880229,
                "lat": 31.9480998,
                "lon": 34.8906817
            },
            {
                "type": "node",
                "id": 4169880248,
                "lat": 31.9509945,
                "lon": 34.8900251
            },
            {
                "type": "node",
                "id": 4169880249,
                "lat": 31.950773,
                "lon": 34.8903019
            },
            {
                "type": "node",
                "id": 4169880250,
                "lat": 31.9506321,
                "lon": 34.8901912
            },
            {
                "type": "node",
                "id": 4169880251,
                "lat": 31.9503704,
                "lon": 34.8904363
            },
            {
                "type": "node",
                "id": 4169880252,
                "lat": 31.9502362,
                "lon": 34.8903256
            },
            {
                "type": "node",
                "id": 4169880253,
                "lat": 31.9507663,
                "lon": 34.8896613
            },
            {
                "type": "node",
                "id": 4169900829,
                "lat": 31.9497586,
                "lon": 34.8898663
            },
            {
                "type": "node",
                "id": 4169900830,
                "lat": 31.9496218,
                "lon": 34.8897292
            },
            {
                "type": "node",
                "id": 4169900831,
                "lat": 31.9495353,
                "lon": 34.8898491
            },
            {
                "type": "node",
                "id": 4169900832,
                "lat": 31.9496721,
                "lon": 34.8899862
            },
            {
                "type": "node",
                "id": 4170003815,
                "lat": 31.9489495,
                "lon": 34.8909986
            },
            {
                "type": "node",
                "id": 4170003816,
                "lat": 31.948852,
                "lon": 34.8911381
            },
            {
                "type": "node",
                "id": 4170003817,
                "lat": 31.9487308,
                "lon": 34.8910204
            },
            {
                "type": "node",
                "id": 4170003818,
                "lat": 31.9488283,
                "lon": 34.8908809
            },
            {
                "type": "node",
                "id": 4170003819,
                "lat": 31.9490035,
                "lon": 34.89133
            },
            {
                "type": "node",
                "id": 4170003820,
                "lat": 31.9487176,
                "lon": 34.8910465
            },
            {
                "type": "node",
                "id": 4170003821,
                "lat": 31.9485781,
                "lon": 34.8912419
            },
            {
                "type": "node",
                "id": 4170016893,
                "lat": 31.9477891,
                "lon": 34.8903001
            },
            {
                "type": "node",
                "id": 4170016894,
                "lat": 31.9476729,
                "lon": 34.890461
            },
            {
                "type": "node",
                "id": 4170016895,
                "lat": 31.9473696,
                "lon": 34.8901568
            },
            {
                "type": "node",
                "id": 4170016896,
                "lat": 31.9474859,
                "lon": 34.8899958
            },
            {
                "type": "node",
                "id": 4177796889,
                "lat": 31.9506756,
                "lon": 34.8885864
            },
            {
                "type": "node",
                "id": 4177796890,
                "lat": 31.9504864,
                "lon": 34.8884093
            },
            {
                "type": "node",
                "id": 4177796891,
                "lat": 31.9506233,
                "lon": 34.8881853
            },
            {
                "type": "node",
                "id": 4177796892,
                "lat": 31.9504725,
                "lon": 34.8880454
            },
            {
                "type": "node",
                "id": 4177796893,
                "lat": 31.9505696,
                "lon": 34.88789
            },
            {
                "type": "node",
                "id": 4177796894,
                "lat": 31.9504029,
                "lon": 34.8877412
            },
            {
                "type": "node",
                "id": 4177796895,
                "lat": 31.9505191,
                "lon": 34.8875924
            },
            {
                "type": "node",
                "id": 4177796896,
                "lat": 31.9507261,
                "lon": 34.8878602
            },
            {
                "type": "node",
                "id": 4177796897,
                "lat": 31.9506605,
                "lon": 34.888009
            },
            {
                "type": "node",
                "id": 4177796898,
                "lat": 31.9507312,
                "lon": 34.8881043
            },
            {
                "type": "node",
                "id": 4177796899,
                "lat": 31.9506453,
                "lon": 34.8883066
            },
            {
                "type": "node",
                "id": 4177796900,
                "lat": 31.9507312,
                "lon": 34.8884852
            },
            {
                "type": "node",
                "id": 4177796901,
                "lat": 31.9508625,
                "lon": 34.8873424
            },
            {
                "type": "node",
                "id": 4177796902,
                "lat": 31.9507716,
                "lon": 34.887271
            },
            {
                "type": "node",
                "id": 4177796903,
                "lat": 31.9509837,
                "lon": 34.8869912
            },
            {
                "type": "node",
                "id": 4177796904,
                "lat": 31.9507463,
                "lon": 34.8867531
            },
            {
                "type": "node",
                "id": 4177796905,
                "lat": 31.950812,
                "lon": 34.886646
            },
            {
                "type": "node",
                "id": 4177796906,
                "lat": 31.9511352,
                "lon": 34.8869376
            },
            {
                "type": "node",
                "id": 4177796913,
                "lat": 31.9515057,
                "lon": 34.8897421
            },
            {
                "type": "node",
                "id": 4177796914,
                "lat": 31.9515683,
                "lon": 34.8898526
            },
            {
                "type": "node",
                "id": 4177796915,
                "lat": 31.9517934,
                "lon": 34.8895505
            },
            {
                "type": "node",
                "id": 4177796916,
                "lat": 31.9516871,
                "lon": 34.8894326
            },
            {
                "type": "node",
                "id": 4185781638,
                "lat": 31.9492784,
                "lon": 34.8906116
            },
            {
                "type": "node",
                "id": 4185781639,
                "lat": 31.9491385,
                "lon": 34.8904773
            },
            {
                "type": "node",
                "id": 4185781640,
                "lat": 31.9492008,
                "lon": 34.8903872
            },
            {
                "type": "node",
                "id": 4185781641,
                "lat": 31.9493406,
                "lon": 34.8905215
            },
            {
                "type": "node",
                "id": 4185781658,
                "lat": 31.9501721,
                "lon": 34.8893663
            },
            {
                "type": "node",
                "id": 4185781659,
                "lat": 31.9500915,
                "lon": 34.8894531
            },
            {
                "type": "node",
                "id": 4185781660,
                "lat": 31.9496355,
                "lon": 34.889048
            },
            {
                "type": "node",
                "id": 4185781661,
                "lat": 31.9487355,
                "lon": 34.8902615
            },
            {
                "type": "node",
                "id": 4185781664,
                "lat": 31.9486313,
                "lon": 34.8901635
            },
            {
                "type": "node",
                "id": 4185781665,
                "lat": 31.9494601,
                "lon": 34.8890686
            },
            {
                "type": "node",
                "id": 4185781666,
                "lat": 31.94966,
                "lon": 34.8889405
            },
            {
                "type": "node",
                "id": 4185781667,
                "lat": 31.9497056,
                "lon": 34.8888661
            },
            {
                "type": "node",
                "id": 4311711046,
                "lat": 31.9499155,
                "lon": 34.8909173
            },
            {
                "type": "node",
                "id": 4311711047,
                "lat": 31.9499304,
                "lon": 34.8908677
            },
            {
                "type": "node",
                "id": 4311711048,
                "lat": 31.9499342,
                "lon": 34.8912625
            },
            {
                "type": "node",
                "id": 4311711049,
                "lat": 31.9499426,
                "lon": 34.89088
            },
            {
                "type": "node",
                "id": 4311711051,
                "lat": 31.9499608,
                "lon": 34.8912893
            },
            {
                "type": "node",
                "id": 4311711052,
                "lat": 31.9499933,
                "lon": 34.8909956
            },
            {
                "type": "node",
                "id": 4311711053,
                "lat": 31.9499947,
                "lon": 34.8911789
            },
            {
                "type": "node",
                "id": 4311711054,
                "lat": 31.949999,
                "lon": 34.890773
            },
            {
                "type": "node",
                "id": 4311711056,
                "lat": 31.9500104,
                "lon": 34.8910798
            },
            {
                "type": "node",
                "id": 4311711057,
                "lat": 31.9500204,
                "lon": 34.8909583
            },
            {
                "type": "node",
                "id": 4311711058,
                "lat": 31.9500214,
                "lon": 34.8912057
            },
            {
                "type": "node",
                "id": 4311711060,
                "lat": 31.9500314,
                "lon": 34.8908056
            },
            {
                "type": "node",
                "id": 4311711061,
                "lat": 31.9500559,
                "lon": 34.8907717
            },
            {
                "type": "node",
                "id": 4311711062,
                "lat": 31.9500655,
                "lon": 34.8910037
            },
            {
                "type": "node",
                "id": 4311711063,
                "lat": 31.9500695,
                "lon": 34.8911393
            },
            {
                "type": "node",
                "id": 4311711064,
                "lat": 31.9500994,
                "lon": 34.8911389
            },
            {
                "type": "node",
                "id": 4311711065,
                "lat": 31.9501168,
                "lon": 34.8909996
            },
            {
                "type": "node",
                "id": 4311711066,
                "lat": 31.9501265,
                "lon": 34.8909013
            },
            {
                "type": "node",
                "id": 4311711068,
                "lat": 31.9501289,
                "lon": 34.8912388
            },
            {
                "type": "node",
                "id": 4311711070,
                "lat": 31.9501511,
                "lon": 34.8908675
            },
            {
                "type": "node",
                "id": 4311711071,
                "lat": 31.9501583,
                "lon": 34.8911981
            },
            {
                "type": "node",
                "id": 4311711072,
                "lat": 31.9501621,
                "lon": 34.8909371
            },
            {
                "type": "node",
                "id": 4311711073,
                "lat": 31.9501651,
                "lon": 34.8910482
            },
            {
                "type": "node",
                "id": 4506579531,
                "lat": 31.9514884,
                "lon": 34.8864771
            },
            {
                "type": "node",
                "id": 6855750173,
                "lat": 31.9489101,
                "lon": 34.8886075
            },
            {
                "type": "node",
                "id": 6855750174,
                "lat": 31.9485037,
                "lon": 34.8892187
            },
            {
                "type": "node",
                "id": 6855750175,
                "lat": 31.9479463,
                "lon": 34.8886474
            },
            {
                "type": "node",
                "id": 6855750176,
                "lat": 31.9480972,
                "lon": 34.8884234
            },
            {
                "type": "node",
                "id": 6855750177,
                "lat": 31.9481682,
                "lon": 34.88839
            },
            {
                "type": "node",
                "id": 6855750178,
                "lat": 31.9483952,
                "lon": 34.8880828
            },
            {
                "type": "node",
                "id": 3620781021,
                "lat": 31.9533714,
                "lon": 34.8872839
            },
            {
                "type": "node",
                "id": 3620781022,
                "lat": 31.9535393,
                "lon": 34.8874962
            },
            {
                "type": "node",
                "id": 3620781023,
                "lat": 31.953707,
                "lon": 34.887312
            },
            {
                "type": "node",
                "id": 3620781024,
                "lat": 31.953539,
                "lon": 34.8870997
            },
            {
                "type": "node",
                "id": 3620781025,
                "lat": 31.9534385,
                "lon": 34.8873688
            },
            {
                "type": "node",
                "id": 4169822228,
                "lat": 31.9521454,
                "lon": 34.8862882
            },
            {
                "type": "node",
                "id": 4169822232,
                "lat": 31.9524081,
                "lon": 34.8863104
            },
            {
                "type": "node",
                "id": 4169822233,
                "lat": 31.952215,
                "lon": 34.8863212
            },
            {
                "type": "node",
                "id": 4169822234,
                "lat": 31.9522013,
                "lon": 34.8859801
            },
            {
                "type": "node",
                "id": 4169822235,
                "lat": 31.9523945,
                "lon": 34.8859694
            },
            {
                "type": "node",
                "id": 4169822236,
                "lat": 31.9526195,
                "lon": 34.8863426
            },
            {
                "type": "node",
                "id": 4169822237,
                "lat": 31.9524964,
                "lon": 34.8862789
            },
            {
                "type": "node",
                "id": 4169822238,
                "lat": 31.9525715,
                "lon": 34.8860773
            },
            {
                "type": "node",
                "id": 4169822240,
                "lat": 31.9526946,
                "lon": 34.886141
            },
            {
                "type": "node",
                "id": 4169822241,
                "lat": 31.9528473,
                "lon": 34.8869125
            },
            {
                "type": "node",
                "id": 4169822242,
                "lat": 31.9526313,
                "lon": 34.8871541
            },
            {
                "type": "node",
                "id": 4169822243,
                "lat": 31.9524927,
                "lon": 34.886982
            },
            {
                "type": "node",
                "id": 4169822244,
                "lat": 31.9527086,
                "lon": 34.8867404
            },
            {
                "type": "node",
                "id": 4169822245,
                "lat": 31.9523154,
                "lon": 34.8870507
            },
            {
                "type": "node",
                "id": 4169822246,
                "lat": 31.9522027,
                "lon": 34.8872072
            },
            {
                "type": "node",
                "id": 4169822248,
                "lat": 31.9521473,
                "lon": 34.8868824
            },
            {
                "type": "node",
                "id": 4169822249,
                "lat": 31.9524949,
                "lon": 34.8872272
            },
            {
                "type": "node",
                "id": 4169822250,
                "lat": 31.9524426,
                "lon": 34.8874584
            },
            {
                "type": "node",
                "id": 4169822251,
                "lat": 31.952305,
                "lon": 34.8873176
            },
            {
                "type": "node",
                "id": 4169822252,
                "lat": 31.9524246,
                "lon": 34.8871553
            },
            {
                "type": "node",
                "id": 4169822253,
                "lat": 31.9528116,
                "lon": 34.8875248
            },
            {
                "type": "node",
                "id": 4169822254,
                "lat": 31.9527512,
                "lon": 34.8877625
            },
            {
                "type": "node",
                "id": 4169822255,
                "lat": 31.9526812,
                "lon": 34.8876917
            },
            {
                "type": "node",
                "id": 4169822256,
                "lat": 31.9527187,
                "lon": 34.887431
            },
            {
                "type": "node",
                "id": 4169900841,
                "lat": 31.9529018,
                "lon": 34.887885
            },
            {
                "type": "node",
                "id": 4169900842,
                "lat": 31.9528574,
                "lon": 34.8879189
            },
            {
                "type": "node",
                "id": 4169900843,
                "lat": 31.9528077,
                "lon": 34.887922
            },
            {
                "type": "node",
                "id": 4169900844,
                "lat": 31.9526143,
                "lon": 34.8881869
            },
            {
                "type": "node",
                "id": 4169900845,
                "lat": 31.9526064,
                "lon": 34.8883934
            },
            {
                "type": "node",
                "id": 4169900846,
                "lat": 31.9526953,
                "lon": 34.8884642
            },
            {
                "type": "node",
                "id": 4169900847,
                "lat": 31.9530169,
                "lon": 34.8880082
            },
            {
                "type": "node",
                "id": 4169900848,
                "lat": 31.952711,
                "lon": 34.8885074
            },
            {
                "type": "node",
                "id": 4169900849,
                "lat": 31.9525986,
                "lon": 34.8886522
            },
            {
                "type": "node",
                "id": 4169900850,
                "lat": 31.9527032,
                "lon": 34.8887385
            },
            {
                "type": "node",
                "id": 4169900851,
                "lat": 31.952792,
                "lon": 34.8885936
            },
            {
                "type": "node",
                "id": 4311711077,
                "lat": 31.9524404,
                "lon": 34.8873012
            },
            {
                "type": "node",
                "id": 4311711078,
                "lat": 31.9525077,
                "lon": 34.8873701
            },
            {
                "type": "node",
                "id": 4311711079,
                "lat": 31.9526612,
                "lon": 34.88751
            },
            {
                "type": "node",
                "id": 4311711080,
                "lat": 31.952761,
                "lon": 34.8875943
            },
            {
                "type": "node",
                "id": 4311711081,
                "lat": 31.9528259,
                "lon": 34.8876599
            },
            {
                "type": "node",
                "id": 6858468412,
                "lat": 31.953935,
                "lon": 34.8903064
            },
            {
                "type": "node",
                "id": 6858468413,
                "lat": 31.9535998,
                "lon": 34.8907123
            },
            {
                "type": "node",
                "id": 6858468414,
                "lat": 31.9530125,
                "lon": 34.8902811
            },
            {
                "type": "node",
                "id": 6858468415,
                "lat": 31.9534768,
                "lon": 34.8897628
            },
            {
                "type": "node",
                "id": 6858468423,
                "lat": 31.9529813,
                "lon": 34.8903553
            },
            {
                "type": "node",
                "id": 6858468424,
                "lat": 31.9527788,
                "lon": 34.8901216
            },
            {
                "type": "node",
                "id": 6858468425,
                "lat": 31.9527265,
                "lon": 34.890176
            },
            {
                "type": "node",
                "id": 6858468426,
                "lat": 31.9524713,
                "lon": 34.8898534
            },
            {
                "type": "node",
                "id": 6858468427,
                "lat": 31.9522908,
                "lon": 34.8900768
            },
            {
                "type": "node",
                "id": 6858468428,
                "lat": 31.9526218,
                "lon": 34.8902008
            },
            {
                "type": "node",
                "id": 6858468429,
                "lat": 31.9529075,
                "lon": 34.8904578
            },
            {
                "type": "node",
                "id": 4165782188,
                "lat": 31.9500591,
                "lon": 34.8914189
            },
            {
                "type": "node",
                "id": 4169822273,
                "lat": 31.9518219,
                "lon": 34.8915094
            },
            {
                "type": "node",
                "id": 4169822276,
                "lat": 31.9520486,
                "lon": 34.8915015
            },
            {
                "type": "node",
                "id": 4169880223,
                "lat": 31.9476947,
                "lon": 34.891468
            },
            {
                "type": "node",
                "id": 4169880224,
                "lat": 31.9477777,
                "lon": 34.891694
            },
            {
                "type": "node",
                "id": 4169880225,
                "lat": 31.9482976,
                "lon": 34.8916007
            },
            {
                "type": "node",
                "id": 4169880240,
                "lat": 31.9477169,
                "lon": 34.8915842
            },
            {
                "type": "node",
                "id": 4169880241,
                "lat": 31.9475045,
                "lon": 34.8917997
            },
            {
                "type": "node",
                "id": 4169880242,
                "lat": 31.9473544,
                "lon": 34.8915943
            },
            {
                "type": "node",
                "id": 4169880243,
                "lat": 31.9475668,
                "lon": 34.8913788
            },
            {
                "type": "node",
                "id": 4170003824,
                "lat": 31.948864,
                "lon": 34.8915254
            },
            {
                "type": "node",
                "id": 4173932858,
                "lat": 31.9513722,
                "lon": 34.8935114
            },
            {
                "type": "node",
                "id": 4173932859,
                "lat": 31.9513154,
                "lon": 34.8931628
            },
            {
                "type": "node",
                "id": 4173932860,
                "lat": 31.9513199,
                "lon": 34.8929858
            },
            {
                "type": "node",
                "id": 4173932861,
                "lat": 31.9509967,
                "lon": 34.8930073
            },
            {
                "type": "node",
                "id": 4173932862,
                "lat": 31.9509603,
                "lon": 34.8934578
            },
            {
                "type": "node",
                "id": 4173932873,
                "lat": 31.9520754,
                "lon": 34.892483
            },
            {
                "type": "node",
                "id": 4173932874,
                "lat": 31.9518074,
                "lon": 34.8923928
            },
            {
                "type": "node",
                "id": 4173932875,
                "lat": 31.9518542,
                "lon": 34.8921994
            },
            {
                "type": "node",
                "id": 4173932883,
                "lat": 31.9520021,
                "lon": 34.8920062
            },
            {
                "type": "node",
                "id": 4311711059,
                "lat": 31.950024,
                "lon": 34.8913835
            },
            {
                "type": "node",
                "id": 4317619458,
                "lat": 31.9513919,
                "lon": 34.8932037
            },
            {
                "type": "node",
                "id": 2282049952,
                "lat": 31.9532309,
                "lon": 34.8937355
            },
            {
                "type": "node",
                "id": 2282049954,
                "lat": 31.9524138,
                "lon": 34.8935234
            },
            {
                "type": "node",
                "id": 2282049955,
                "lat": 31.953202,
                "lon": 34.8921117
            },
            {
                "type": "node",
                "id": 2282049956,
                "lat": 31.9534754,
                "lon": 34.8930662
            },
            {
                "type": "node",
                "id": 2282049957,
                "lat": 31.9521923,
                "lon": 34.8935004
            },
            {
                "type": "node",
                "id": 2282049958,
                "lat": 31.9536713,
                "lon": 34.8922855
            },
            {
                "type": "node",
                "id": 2282049960,
                "lat": 31.9531365,
                "lon": 34.8923209
            },
            {
                "type": "node",
                "id": 2282049961,
                "lat": 31.9533113,
                "lon": 34.8936995
            },
            {
                "type": "node",
                "id": 2282049963,
                "lat": 31.9521703,
                "lon": 34.8936382
            },
            {
                "type": "node",
                "id": 2282049964,
                "lat": 31.9522444,
                "lon": 34.8932755
            },
            {
                "type": "node",
                "id": 2282049966,
                "lat": 31.9525402,
                "lon": 34.8921117
            },
            {
                "type": "node",
                "id": 2282049967,
                "lat": 31.9523693,
                "lon": 34.893709
            },
            {
                "type": "node",
                "id": 4173932877,
                "lat": 31.9521222,
                "lon": 34.8922895
            },
            {
                "type": "node",
                "id": 4173932878,
                "lat": 31.9531066,
                "lon": 34.8922537
            },
            {
                "type": "node",
                "id": 4173932879,
                "lat": 31.9531582,
                "lon": 34.892092
            },
            {
                "type": "node",
                "id": 4173932880,
                "lat": 31.9524299,
                "lon": 34.8917165
            },
            {
                "type": "node",
                "id": 4173932881,
                "lat": 31.9521842,
                "lon": 34.8920223
            },
            {
                "type": "node",
                "id": 4173932882,
                "lat": 31.9521022,
                "lon": 34.8918613
            },
            {
                "type": "node",
                "id": 4173932884,
                "lat": 31.9523116,
                "lon": 34.8922047
            },
            {
                "type": "node",
                "id": 4173932885,
                "lat": 31.952389,
                "lon": 34.892033
            },
            {
                "type": "node",
                "id": 4177716367,
                "lat": 31.9530658,
                "lon": 34.8925477
            },
            {
                "type": "node",
                "id": 4177716371,
                "lat": 31.9529737,
                "lon": 34.8925108
            },
            {
                "type": "node",
                "id": 4177716372,
                "lat": 31.9531264,
                "lon": 34.8923376
            },
            {
                "type": "node",
                "id": 4311740314,
                "lat": 31.9530342,
                "lon": 34.8923007
            }
        ]
    },
    {
        "version": 0.6,
        "generator": "Overpass API 0.7.62.1 084b4234",
        "osm3s": {
            "timestamp_osm_base": "2024-04-13T22:51:10Z",
            "copyright": "The data included in this document is from www.openstreetmap.org. The data is made available under ODbL."
        },
        "elements": [
            {
                "type": "node",
                "id": 4177712540,
                "lat": 31.9534119,
                "lon": 34.887668,
                "tags": {
                    "amenity": "police",
                    "name": "מוקד עירוני",
                    "name:he": "מוקד עירוני"
                }
            },
            {
                "type": "node",
                "id": 4185807407,
                "lat": 31.9499556,
                "lon": 34.8899354,
                "tags": {
                    "amenity": "clinic",
                    "healthcare": "clinic",
                    "name": "פיזיוטרפיה כללית",
                    "name:he": "פיזיוטרפיה כללית"
                }
            },
            {
                "type": "node",
                "id": 4188782888,
                "lat": 31.948884,
                "lon": 34.8907502,
                "tags": {
                    "amenity": "pharmacy",
                    "healthcare": "pharmacy"
                }
            },
            {
                "type": "node",
                "id": 5171821210,
                "lat": 31.9476175,
                "lon": 34.8915335,
                "tags": {
                    "addr:city": "לוד",
                    "amenity": "clinic",
                    "healthcare": "clinic",
                    "name": "קופת חולים כללית",
                    "name:en": "Kupat Holim Clalit",
                    "name:en1": "Clalit clinic",
                    "name:he": "קופת חולים כללית"
                }
            },
            {
                "type": "node",
                "id": 5708471647,
                "lat": 31.950745,
                "lon": 34.8886,
                "tags": {
                    "amenity": "waste_basket"
                }
            },
            {
                "type": "node",
                "id": 6858468422,
                "lat": 31.9534881,
                "lon": 34.8896999,
                "tags": {
                    "amenity": "parking_entrance"
                }
            },
            {
                "type": "node",
                "id": 7379257659,
                "lat": 31.9483449,
                "lon": 34.8878903,
                "tags": {
                    "amenity": "kindergarten",
                    "name": "רימון",
                    "name:en": "Rimon",
                    "name:he": "רימון"
                }
            },
            {
                "type": "node",
                "id": 7379257660,
                "lat": 31.9484351,
                "lon": 34.8877597,
                "tags": {
                    "amenity": "kindergarten",
                    "name": "עופרה",
                    "name:en": "Ofrah",
                    "name:he": "עופרה"
                }
            },
            {
                "type": "node",
                "id": 9161048860,
                "lat": 31.9481684,
                "lon": 34.8912931,
                "tags": {
                    "addr:city": "לוד",
                    "addr:housename": "2",
                    "addr:street": "שדרות דוד המלך",
                    "amenity": "charging_station",
                    "authentication:app": "yes",
                    "bicycle": "no",
                    "bus": "no",
                    "capacity": "2",
                    "charge": "1.69 ILS/kWh",
                    "fee": "yes",
                    "hgv": "no",
                    "motorcar": "yes",
                    "network": "EV-Edge",
                    "opening_hours": "24/7",
                    "operator": "מילגם",
                    "parking:fee": "yes",
                    "scooter": "no",
                    "socket:type2": "2",
                    "socket:type2:output": "22 kW",
                    "website": "https://evedge.co.il/"
                }
            },
            {
                "type": "way",
                "id": 219001054,
                "nodes": [
                    2282049958,
                    2282049956,
                    2282049961,
                    2282049952,
                    2282049954,
                    2282049967,
                    2282049963,
                    2282049957,
                    2282049964,
                    2282049966,
                    2282049960,
                    2282049955,
                    2282049958
                ],
                "tags": {
                    "amenity": "school"
                }
            },
            {
                "type": "way",
                "id": 356663988,
                "nodes": [
                    3620781021,
                    3620781025,
                    3620781022,
                    3620781023,
                    3620781024,
                    3620781021
                ],
                "tags": {
                    "amenity": "parking"
                }
            },
            {
                "type": "way",
                "id": 415523183,
                "nodes": [
                    4165782290,
                    4506579531,
                    4165782291,
                    4165782292,
                    4165782293,
                    4165782290
                ],
                "tags": {
                    "addr:city": "Lod",
                    "addr:street": "שדרות דוד המלך",
                    "amenity": "library",
                    "building": "yes",
                    "name": "הספרייה העירונית",
                    "name:he": "הספרייה העירונית"
                }
            },
            {
                "type": "way",
                "id": 415523185,
                "nodes": [
                    4165782302,
                    4165782303,
                    4165782304,
                    4165782305,
                    4165782302
                ],
                "tags": {
                    "addr:city": "לוד",
                    "addr:street": "כהן אלי",
                    "amenity": "clinic",
                    "building": "yes",
                    "healthcare": "clinic",
                    "name": "קופת חולים כללית - חיסכון לוד",
                    "name:en": "Clallit clinic",
                    "name:he": "קופת חולים כללית - חיסכון לוד"
                }
            },
            {
                "type": "way",
                "id": 416151941,
                "nodes": [
                    4169822228,
                    4169822229,
                    4169822230,
                    4169822231,
                    4169822228
                ],
                "tags": {
                    "addr:city": "Lod",
                    "addr:street": "כהן אלי",
                    "amenity": "place_of_worship",
                    "building": "yes",
                    "name": "בית כנסת של יהודי גיאורגיה",
                    "name:he": "בית כנסת של יהודי גיאורגיה",
                    "religion": "jewish"
                }
            },
            {
                "type": "way",
                "id": 416151942,
                "nodes": [
                    4169822232,
                    4169822233,
                    4169822234,
                    4169822235,
                    4169822232
                ],
                "tags": {
                    "addr:city": "Lod",
                    "addr:street": "כהן אלי",
                    "amenity": "place_of_worship",
                    "building": "yes",
                    "religion": "jewish"
                }
            },
            {
                "type": "way",
                "id": 416151943,
                "nodes": [
                    4169822236,
                    4169822237,
                    4169822238,
                    4169822240,
                    4169822236
                ],
                "tags": {
                    "addr:city": "Lod",
                    "addr:street": "כהן אלי",
                    "amenity": "place_of_worship",
                    "building": "yes",
                    "religion": "jewish"
                }
            },
            {
                "type": "way",
                "id": 416151944,
                "nodes": [
                    4169822241,
                    4169822242,
                    4169822243,
                    4169822244,
                    4169822241
                ],
                "tags": {
                    "addr:city": "Lod",
                    "addr:street": "כהן אלי",
                    "amenity": "place_of_worship",
                    "building": "yes",
                    "name": "בית כנסת של עולי הודו",
                    "name:he": "בית כנסת של עולי הודו",
                    "religion": "jewish"
                }
            },
            {
                "type": "way",
                "id": 416151947,
                "nodes": [
                    4169822245,
                    4169822246,
                    4169822247,
                    4169822248,
                    4169822245
                ],
                "tags": {
                    "addr:city": "Lod",
                    "addr:street": "זלמן ארן",
                    "amenity": "kindergarten",
                    "building": "kindergarten",
                    "name": "גן ילדים",
                    "name:en": "Kindergarten",
                    "name:he": "גן ילדים"
                }
            },
            {
                "type": "way",
                "id": 416151948,
                "nodes": [
                    4169822249,
                    4311711077,
                    4311711078,
                    4169822250,
                    4169822251,
                    4169822252,
                    4169822249
                ],
                "tags": {
                    "addr:city": "Lod",
                    "addr:street": "זלמן ארן",
                    "amenity": "kindergarten",
                    "building": "kindergarten",
                    "name": "גן ילדים",
                    "name:en": "Kindergarten",
                    "name:he": "גן ילדים"
                }
            },
            {
                "type": "way",
                "id": 416151950,
                "nodes": [
                    4169822253,
                    4311711080,
                    4311711081,
                    4169822254,
                    4169822255,
                    4311711079,
                    4169822256,
                    4169822253
                ],
                "tags": {
                    "addr:city": "Lod",
                    "addr:street": "זלמן ארן",
                    "amenity": "kindergarten",
                    "building": "kindergarten",
                    "name": "גן ילדים",
                    "name:en": "Kindergarten",
                    "name:he": "גן ילדים"
                }
            },
            {
                "type": "way",
                "id": 416151957,
                "nodes": [
                    4169822273,
                    4169822274,
                    4169822275,
                    4169822276,
                    4169822273
                ],
                "tags": {
                    "amenity": "kindergarten",
                    "building": "house",
                    "name": "גן ילדים",
                    "name:en": "Kindergarten",
                    "name:he": "גן ילדים"
                }
            },
            {
                "type": "way",
                "id": 416158186,
                "nodes": [
                    4169880217,
                    4169880218,
                    4169880219,
                    4169880220,
                    4169880217
                ],
                "tags": {
                    "addr:city": "Lod",
                    "amenity": "townhall",
                    "building": "yes",
                    "name": "בניין העירייה",
                    "name:en": "City Hall",
                    "name:he": "בניין העירייה"
                }
            },
            {
                "type": "way",
                "id": 416158187,
                "nodes": [
                    4169880221,
                    4169880222,
                    4169880223,
                    4169880224,
                    4169880225,
                    4169880221
                ],
                "tags": {
                    "amenity": "parking"
                }
            },
            {
                "type": "way",
                "id": 416158188,
                "nodes": [
                    4169880226,
                    4169880227,
                    4169880228,
                    4169880229,
                    4169880226
                ],
                "tags": {
                    "amenity": "parking"
                }
            },
            {
                "type": "way",
                "id": 416158191,
                "nodes": [
                    4169880240,
                    4169880241,
                    4169880242,
                    4169880243,
                    4169880240
                ],
                "tags": {
                    "addr:city": "Lod",
                    "addr:street": "שדרות דוד המלך",
                    "amenity": "pharmacy",
                    "brand": "סופר-פארם",
                    "brand:he": "סופר-פארם",
                    "brand:wikidata": "Q13220217",
                    "brand:wikipedia": "en:Super-Pharm",
                    "building": "yes",
                    "healthcare": "pharmacy",
                    "name": "סופר-פארם",
                    "name:en": "Super-Pharm",
                    "name:he": "סופר-פארם",
                    "name:ru": "Супер-Фарм",
                    "website": "http://www.super-pharm.co.il"
                }
            },
            {
                "type": "way",
                "id": 416158193,
                "nodes": [
                    4169880248,
                    4169880249,
                    4169880250,
                    4169880251,
                    4169880252,
                    4169880253,
                    4169880248
                ],
                "tags": {
                    "amenity": "parking"
                }
            },
            {
                "type": "way",
                "id": 416159996,
                "nodes": [
                    4169900829,
                    4169900830,
                    4169900831,
                    4169900832,
                    4169900829
                ],
                "tags": {
                    "amenity": "parking"
                }
            },
            {
                "type": "way",
                "id": 416159999,
                "nodes": [
                    4169900841,
                    4169900842,
                    4169900843,
                    4169900844,
                    4169900845,
                    4169900846,
                    4169900847,
                    4169900841
                ],
                "tags": {
                    "amenity": "parking"
                }
            },
            {
                "type": "way",
                "id": 416160000,
                "nodes": [
                    4169900848,
                    4169900849,
                    4169900850,
                    4169900851,
                    4169900848
                ],
                "tags": {
                    "amenity": "parking"
                }
            },
            {
                "type": "way",
                "id": 416169310,
                "nodes": [
                    4170003815,
                    4170003816,
                    4170003817,
                    4170003818,
                    4170003815
                ],
                "tags": {
                    "amenity": "bank",
                    "brand": "בנק לאומי",
                    "brand:en": "Bank Leumi",
                    "brand:he": "בנק לאומי",
                    "brand:wikidata": "Q806641",
                    "brand:wikipedia": "en:Bank Leumi",
                    "building": "yes",
                    "name": "בנק לאומי",
                    "name:ar": "بنك ليئومي",
                    "name:en": "Bank Leumi",
                    "name:he": "בנק לאומי",
                    "name:ru": "Банк Леуми",
                    "website": "https://www.leumi.co.il"
                }
            },
            {
                "type": "way",
                "id": 416169311,
                "nodes": [
                    4170003819,
                    4170003820,
                    4170003821,
                    4170003824,
                    4170003819
                ],
                "tags": {
                    "amenity": "events_venue",
                    "building": "yes",
                    "name": "אולם אירועים",
                    "name:he": "אולם אירועים"
                }
            },
            {
                "type": "way",
                "id": 416169679,
                "nodes": [
                    4170016893,
                    4170016894,
                    4170016895,
                    4170016896,
                    4170016893
                ],
                "tags": {
                    "amenity": "parking"
                }
            },
            {
                "type": "way",
                "id": 416655221,
                "nodes": [
                    4173932858,
                    4317619458,
                    4173932859,
                    4173932860,
                    4173932861,
                    4173932862,
                    4173932858
                ],
                "tags": {
                    "addr:city": "Lod",
                    "addr:street": "כצנלסון",
                    "amenity": "police",
                    "building": "yes",
                    "name": "משטרת לוד",
                    "name:he": "משטרת לוד"
                }
            },
            {
                "type": "way",
                "id": 416655224,
                "nodes": [
                    4173932873,
                    4173932874,
                    4173932875,
                    4173932877,
                    4173932873
                ],
                "tags": {
                    "amenity": "place_of_worship",
                    "building": "yes",
                    "religion": "jewish"
                }
            },
            {
                "type": "way",
                "id": 416655225,
                "nodes": [
                    4173932878,
                    4173932879,
                    4173932880,
                    4173932881,
                    4173932882,
                    4173932883,
                    4173932884,
                    4173932885,
                    4173932878
                ],
                "tags": {
                    "amenity": "parking"
                }
            },
            {
                "type": "way",
                "id": 417164595,
                "nodes": [
                    4177716367,
                    4177716371,
                    4311740314,
                    4177716372,
                    4177716367
                ],
                "tags": {
                    "amenity": "place_of_worship",
                    "building": "yes",
                    "religion": "jewish"
                }
            },
            {
                "type": "way",
                "id": 417176198,
                "nodes": [
                    4177796889,
                    4177796890,
                    4177796891,
                    4177796892,
                    4177796893,
                    4177796894,
                    4177796895,
                    4177796896,
                    4177796897,
                    4177796898,
                    4177796899,
                    4177796900,
                    4177796889
                ],
                "tags": {
                    "amenity": "parking"
                }
            },
            {
                "type": "way",
                "id": 417176201,
                "nodes": [
                    4177796901,
                    4177796902,
                    4177796903,
                    4177796904,
                    4177796905,
                    4177796906,
                    4177796901
                ],
                "tags": {
                    "amenity": "parking"
                }
            },
            {
                "type": "way",
                "id": 417176203,
                "nodes": [
                    4177796913,
                    4177796914,
                    4177796915,
                    4177796916,
                    4177796913
                ],
                "tags": {
                    "amenity": "parking"
                }
            },
            {
                "type": "way",
                "id": 418126678,
                "nodes": [
                    4185781638,
                    4185781639,
                    4185781640,
                    4185781641,
                    4185781638
                ],
                "tags": {
                    "addr:city": "לוד",
                    "addr:street": "כהן אלי",
                    "amenity": "place_of_worship",
                    "building": "yes",
                    "religion": "jewish"
                }
            },
            {
                "type": "way",
                "id": 418126682,
                "nodes": [
                    4185781658,
                    4185781659,
                    4185781660,
                    4185781661,
                    4185781664,
                    4185781665,
                    4185781666,
                    4185781667,
                    4185781658
                ],
                "tags": {
                    "amenity": "parking"
                }
            },
            {
                "type": "way",
                "id": 431954319,
                "nodes": [
                    4311711065,
                    4311711073,
                    4311711064,
                    4311711071,
                    4311711068,
                    4165782187,
                    4165782188,
                    4311711059,
                    4165782289,
                    4311711051,
                    4311711048,
                    4311711053,
                    4311711058,
                    4165782186,
                    4311711063,
                    4311711056,
                    4311711062,
                    4311711057,
                    4311711052,
                    4311711046,
                    4311711049,
                    4311711047,
                    4311711054,
                    4311711060,
                    4311711061,
                    4311711070,
                    4311711066,
                    4311711072,
                    4311711065
                ],
                "tags": {
                    "addr:city": "Lod",
                    "addr:housenumber": "4",
                    "addr:street": "יוברט המפרי",
                    "amenity": "social_facility",
                    "building": "yes",
                    "name": "דיור מוגן לקשישים",
                    "name:he": "דיור מוגן לקשישים",
                    "social_facility": "group_home",
                    "social_facility:for": "senior"
                }
            },
            {
                "type": "way",
                "id": 732162303,
                "nodes": [
                    6855750173,
                    6855750174,
                    6855750175,
                    6855750176,
                    6855750177,
                    6855750178,
                    6855750173
                ],
                "tags": {
                    "amenity": "school",
                    "name": "המעפילים",
                    "name:en": "HaMaapilim",
                    "name:he": "המעפילים"
                }
            },
            {
                "type": "way",
                "id": 732409869,
                "nodes": [
                    6858468412,
                    6858468413,
                    6858468414,
                    6858468415,
                    6858468412
                ],
                "tags": {
                    "amenity": "parking"
                }
            },
            {
                "type": "way",
                "id": 732409871,
                "nodes": [
                    6858468423,
                    6858468424,
                    6858468425,
                    6858468426,
                    6858468427,
                    6858468428,
                    6858468429,
                    6858468423
                ],
                "tags": {
                    "amenity": "parking"
                }
            },
            {
                "type": "node",
                "id": 4165782186,
                "lat": 31.9500528,
                "lon": 34.8911623
            },
            {
                "type": "node",
                "id": 4165782187,
                "lat": 31.950164,
                "lon": 34.8912742
            },
            {
                "type": "node",
                "id": 4165782289,
                "lat": 31.949948,
                "lon": 34.891307
            },
            {
                "type": "node",
                "id": 4165782290,
                "lat": 31.9515708,
                "lon": 34.886381
            },
            {
                "type": "node",
                "id": 4165782291,
                "lat": 31.9514009,
                "lon": 34.8865791
            },
            {
                "type": "node",
                "id": 4165782292,
                "lat": 31.9516357,
                "lon": 34.8868589
            },
            {
                "type": "node",
                "id": 4165782293,
                "lat": 31.9518056,
                "lon": 34.8866608
            },
            {
                "type": "node",
                "id": 4165782302,
                "lat": 31.9498621,
                "lon": 34.8906423
            },
            {
                "type": "node",
                "id": 4165782303,
                "lat": 31.9496093,
                "lon": 34.8904039
            },
            {
                "type": "node",
                "id": 4165782304,
                "lat": 31.9497074,
                "lon": 34.8902594
            },
            {
                "type": "node",
                "id": 4165782305,
                "lat": 31.9499602,
                "lon": 34.8904978
            },
            {
                "type": "node",
                "id": 4169822229,
                "lat": 31.9519412,
                "lon": 34.8865288
            },
            {
                "type": "node",
                "id": 4169822230,
                "lat": 31.9517335,
                "lon": 34.886284
            },
            {
                "type": "node",
                "id": 4169822231,
                "lat": 31.9519376,
                "lon": 34.8860433
            },
            {
                "type": "node",
                "id": 4169822247,
                "lat": 31.9520345,
                "lon": 34.8870389
            },
            {
                "type": "node",
                "id": 4169822274,
                "lat": 31.9518176,
                "lon": 34.8913389
            },
            {
                "type": "node",
                "id": 4169822275,
                "lat": 31.9520444,
                "lon": 34.891331
            },
            {
                "type": "node",
                "id": 4169880217,
                "lat": 31.9490285,
                "lon": 34.8907822
            },
            {
                "type": "node",
                "id": 4169880218,
                "lat": 31.9484207,
                "lon": 34.8901959
            },
            {
                "type": "node",
                "id": 4169880219,
                "lat": 31.948342,
                "lon": 34.8903092
            },
            {
                "type": "node",
                "id": 4169880220,
                "lat": 31.9489499,
                "lon": 34.8908954
            },
            {
                "type": "node",
                "id": 4169880221,
                "lat": 31.9484389,
                "lon": 34.8912145
            },
            {
                "type": "node",
                "id": 4169880222,
                "lat": 31.9481789,
                "lon": 34.8909348
            },
            {
                "type": "node",
                "id": 4169880226,
                "lat": 31.9477608,
                "lon": 34.8911346
            },
            {
                "type": "node",
                "id": 4169880227,
                "lat": 31.9476421,
                "lon": 34.8910413
            },
            {
                "type": "node",
                "id": 4169880228,
                "lat": 31.9479981,
                "lon": 34.8905885
            },
            {
                "type": "node",
                "id": 4169880229,
                "lat": 31.9480998,
                "lon": 34.8906817
            },
            {
                "type": "node",
                "id": 4169880248,
                "lat": 31.9509945,
                "lon": 34.8900251
            },
            {
                "type": "node",
                "id": 4169880249,
                "lat": 31.950773,
                "lon": 34.8903019
            },
            {
                "type": "node",
                "id": 4169880250,
                "lat": 31.9506321,
                "lon": 34.8901912
            },
            {
                "type": "node",
                "id": 4169880251,
                "lat": 31.9503704,
                "lon": 34.8904363
            },
            {
                "type": "node",
                "id": 4169880252,
                "lat": 31.9502362,
                "lon": 34.8903256
            },
            {
                "type": "node",
                "id": 4169880253,
                "lat": 31.9507663,
                "lon": 34.8896613
            },
            {
                "type": "node",
                "id": 4169900829,
                "lat": 31.9497586,
                "lon": 34.8898663
            },
            {
                "type": "node",
                "id": 4169900830,
                "lat": 31.9496218,
                "lon": 34.8897292
            },
            {
                "type": "node",
                "id": 4169900831,
                "lat": 31.9495353,
                "lon": 34.8898491
            },
            {
                "type": "node",
                "id": 4169900832,
                "lat": 31.9496721,
                "lon": 34.8899862
            },
            {
                "type": "node",
                "id": 4170003815,
                "lat": 31.9489495,
                "lon": 34.8909986
            },
            {
                "type": "node",
                "id": 4170003816,
                "lat": 31.948852,
                "lon": 34.8911381
            },
            {
                "type": "node",
                "id": 4170003817,
                "lat": 31.9487308,
                "lon": 34.8910204
            },
            {
                "type": "node",
                "id": 4170003818,
                "lat": 31.9488283,
                "lon": 34.8908809
            },
            {
                "type": "node",
                "id": 4170003819,
                "lat": 31.9490035,
                "lon": 34.89133
            },
            {
                "type": "node",
                "id": 4170003820,
                "lat": 31.9487176,
                "lon": 34.8910465
            },
            {
                "type": "node",
                "id": 4170003821,
                "lat": 31.9485781,
                "lon": 34.8912419
            },
            {
                "type": "node",
                "id": 4170016893,
                "lat": 31.9477891,
                "lon": 34.8903001
            },
            {
                "type": "node",
                "id": 4170016894,
                "lat": 31.9476729,
                "lon": 34.890461
            },
            {
                "type": "node",
                "id": 4170016895,
                "lat": 31.9473696,
                "lon": 34.8901568
            },
            {
                "type": "node",
                "id": 4170016896,
                "lat": 31.9474859,
                "lon": 34.8899958
            },
            {
                "type": "node",
                "id": 4177796889,
                "lat": 31.9506756,
                "lon": 34.8885864
            },
            {
                "type": "node",
                "id": 4177796890,
                "lat": 31.9504864,
                "lon": 34.8884093
            },
            {
                "type": "node",
                "id": 4177796891,
                "lat": 31.9506233,
                "lon": 34.8881853
            },
            {
                "type": "node",
                "id": 4177796892,
                "lat": 31.9504725,
                "lon": 34.8880454
            },
            {
                "type": "node",
                "id": 4177796893,
                "lat": 31.9505696,
                "lon": 34.88789
            },
            {
                "type": "node",
                "id": 4177796894,
                "lat": 31.9504029,
                "lon": 34.8877412
            },
            {
                "type": "node",
                "id": 4177796895,
                "lat": 31.9505191,
                "lon": 34.8875924
            },
            {
                "type": "node",
                "id": 4177796896,
                "lat": 31.9507261,
                "lon": 34.8878602
            },
            {
                "type": "node",
                "id": 4177796897,
                "lat": 31.9506605,
                "lon": 34.888009
            },
            {
                "type": "node",
                "id": 4177796898,
                "lat": 31.9507312,
                "lon": 34.8881043
            },
            {
                "type": "node",
                "id": 4177796899,
                "lat": 31.9506453,
                "lon": 34.8883066
            },
            {
                "type": "node",
                "id": 4177796900,
                "lat": 31.9507312,
                "lon": 34.8884852
            },
            {
                "type": "node",
                "id": 4177796901,
                "lat": 31.9508625,
                "lon": 34.8873424
            },
            {
                "type": "node",
                "id": 4177796902,
                "lat": 31.9507716,
                "lon": 34.887271
            },
            {
                "type": "node",
                "id": 4177796903,
                "lat": 31.9509837,
                "lon": 34.8869912
            },
            {
                "type": "node",
                "id": 4177796904,
                "lat": 31.9507463,
                "lon": 34.8867531
            },
            {
                "type": "node",
                "id": 4177796905,
                "lat": 31.950812,
                "lon": 34.886646
            },
            {
                "type": "node",
                "id": 4177796906,
                "lat": 31.9511352,
                "lon": 34.8869376
            },
            {
                "type": "node",
                "id": 4177796913,
                "lat": 31.9515057,
                "lon": 34.8897421
            },
            {
                "type": "node",
                "id": 4177796914,
                "lat": 31.9515683,
                "lon": 34.8898526
            },
            {
                "type": "node",
                "id": 4177796915,
                "lat": 31.9517934,
                "lon": 34.8895505
            },
            {
                "type": "node",
                "id": 4177796916,
                "lat": 31.9516871,
                "lon": 34.8894326
            },
            {
                "type": "node",
                "id": 4185781638,
                "lat": 31.9492784,
                "lon": 34.8906116
            },
            {
                "type": "node",
                "id": 4185781639,
                "lat": 31.9491385,
                "lon": 34.8904773
            },
            {
                "type": "node",
                "id": 4185781640,
                "lat": 31.9492008,
                "lon": 34.8903872
            },
            {
                "type": "node",
                "id": 4185781641,
                "lat": 31.9493406,
                "lon": 34.8905215
            },
            {
                "type": "node",
                "id": 4185781658,
                "lat": 31.9501721,
                "lon": 34.8893663
            },
            {
                "type": "node",
                "id": 4185781659,
                "lat": 31.9500915,
                "lon": 34.8894531
            },
            {
                "type": "node",
                "id": 4185781660,
                "lat": 31.9496355,
                "lon": 34.889048
            },
            {
                "type": "node",
                "id": 4185781661,
                "lat": 31.9487355,
                "lon": 34.8902615
            },
            {
                "type": "node",
                "id": 4185781664,
                "lat": 31.9486313,
                "lon": 34.8901635
            },
            {
                "type": "node",
                "id": 4185781665,
                "lat": 31.9494601,
                "lon": 34.8890686
            },
            {
                "type": "node",
                "id": 4185781666,
                "lat": 31.94966,
                "lon": 34.8889405
            },
            {
                "type": "node",
                "id": 4185781667,
                "lat": 31.9497056,
                "lon": 34.8888661
            },
            {
                "type": "node",
                "id": 4311711046,
                "lat": 31.9499155,
                "lon": 34.8909173
            },
            {
                "type": "node",
                "id": 4311711047,
                "lat": 31.9499304,
                "lon": 34.8908677
            },
            {
                "type": "node",
                "id": 4311711048,
                "lat": 31.9499342,
                "lon": 34.8912625
            },
            {
                "type": "node",
                "id": 4311711049,
                "lat": 31.9499426,
                "lon": 34.89088
            },
            {
                "type": "node",
                "id": 4311711051,
                "lat": 31.9499608,
                "lon": 34.8912893
            },